{
  "places": [
    {
      "id": "ctr",
      "label": "Gerusalemme",
      "lat": 31.778,
      "lon": 35.235,
      "status": "documentato",
      "kind": "centro",
      "dy": -22
    },
    {
      "id": "heb",
      "label": "Hebron",
      "lat": 31.53,
      "lon": 35.1,
      "status": "documentato",
      "kind": "locale"
    },
    {
      "id": "nab",
      "label": "Nablus",
      "lat": 32.22,
      "lon": 35.26,
      "status": "documentato",
      "kind": "locale"
    },
    {
      "id": "jaf",
      "label": "Giaffa",
      "lat": 32.05,
      "lon": 34.75,
      "status": "documentato",
      "kind": "locale"
    },
    {
      "id": "acr",
      "label": "Acri",
      "lat": 32.93,
      "lon": 35.08,
      "status": "documentato",
      "kind": "locale"
    },
    {
      "id": "dam",
      "label": "Damasco",
      "lat": 33.51,
      "lon": 36.28,
      "status": "documentato",
      "kind": "lungadistanza"
    },
    {
      "id": "cai",
      "label": "Cairo",
      "lat": 30.04,
      "lon": 31.24,
      "status": "documentato",
      "kind": "lungadistanza"
    }
  ],
  "flows": [
    {
      "source": "heb",
      "target": "ctr",
      "status": "documentato",
      "label": "strada meridionale",
      "food": "uva, bestiame e pellegrini"
    },
    {
      "source": "nab",
      "target": "ctr",
      "status": "documentato",
      "label": "asse samaritano",
      "food": "olio, sapone e cereali"
    },
    {
      "source": "jaf",
      "target": "ctr",
      "status": "documentato",
      "label": "porto mediterraneo",
      "food": "pellegrini e derrate"
    },
    {
      "source": "acr",
      "target": "ctr",
      "status": "documentato",
      "label": "rete crociata costiera",
      "food": "merci e uomini"
    },
    {
      "source": "dam",
      "target": "ctr",
      "status": "documentato",
      "label": "strada ayyubide-mamelucca",
      "food": "funzionari, tessili e spezie"
    },
    {
      "source": "cai",
      "target": "ctr",
      "status": "documentato",
      "label": "rete mamelucca",
      "food": "zucchero, grano e pellegrini"
    }
  ]
}
