{
  "places": [
    {
      "id": "ctr",
      "label": "Aswan",
      "lat": 24.0889,
      "lon": 32.8998,
      "status": "documentato",
      "kind": "centro",
      "dy": -22
    },
    {
      "id": "dam",
      "label": "Grande Diga e cantieri",
      "lat": 23.97,
      "lon": 32.88,
      "status": "documentato",
      "kind": "locale",
      "dy": 24
    },
    {
      "id": "nub",
      "label": "Nubia egiziana e nuovi villaggi",
      "lat": 23.4,
      "lon": 32.8,
      "status": "documentato",
      "kind": "locale",
      "dy": 24
    },
    {
      "id": "kom",
      "label": "Kom Ombo e valle irrigua",
      "lat": 24.47,
      "lon": 32.95,
      "status": "documentato",
      "kind": "locale",
      "dy": 24
    },
    {
      "id": "abu",
      "label": "Abu Simbel e Lago Nasser",
      "lat": 22.34,
      "lon": 31.62,
      "status": "documentato",
      "kind": "lungadistanza",
      "dy": 24
    },
    {
      "id": "cai",
      "label": "Cairo e amministrazione centrale",
      "lat": 30.04,
      "lon": 31.24,
      "status": "documentato",
      "kind": "lungadistanza",
      "dy": 24
    },
    {
      "id": "sud",
      "label": "Wadi Halfa e Sudan settentrionale",
      "lat": 21.8,
      "lon": 31.35,
      "status": "documentato",
      "kind": "lungadistanza",
      "dy": 24
    }
  ],
  "flows": [
    {
      "source": "dam",
      "target": "ctr",
      "status": "documentato",
      "label": "strade e ferrovia di cantiere",
      "food": "lavoratori, cemento, acciaio e macchinari"
    },
    {
      "source": "nub",
      "target": "ctr",
      "status": "documentato",
      "label": "trasferimenti statali",
      "food": "popolazione reinsediata, derrate e materiali"
    },
    {
      "source": "kom",
      "target": "ctr",
      "status": "documentato",
      "label": "ferrovia e camion",
      "food": "cereali, ortaggi e zucchero"
    },
    {
      "source": "abu",
      "target": "ctr",
      "status": "documentato",
      "label": "battelli e strade",
      "food": "pesce, turismo archeologico e monumenti trasferiti"
    },
    {
      "source": "cai",
      "target": "ctr",
      "status": "documentato",
      "label": "ferrovia e trasporto aereo",
      "food": "capitali, tecnici, ministeri e attrezzature"
    },
    {
      "source": "sud",
      "target": "ctr",
      "status": "documentato",
      "label": "Nilo e frontiera",
      "food": "scambi, popolazioni nubiane e traffici nilotici"
    }
  ]
}
