{
  "places": [
    {
      "id": "ctr",
      "label": "San Salvador",
      "lat": 13.6929,
      "lon": -89.2182,
      "status": "documentato",
      "kind": "centro",
      "dy": -22
    },
    {
      "id": "vol",
      "label": "Vulcano di San Salvador e fincas",
      "lat": 13.73,
      "lon": -89.29,
      "status": "documentato",
      "kind": "locale",
      "dy": 24
    },
    {
      "id": "ilo",
      "label": "Ilopango e valle orientale",
      "lat": 13.67,
      "lon": -89.05,
      "status": "documentato",
      "kind": "locale",
      "dy": 24
    },
    {
      "id": "lib",
      "label": "La Libertad e costa",
      "lat": 13.49,
      "lon": -89.32,
      "status": "documentato",
      "kind": "locale",
      "dy": 24
    },
    {
      "id": "aca",
      "label": "Acajutla e occidente caffeicolo",
      "lat": 13.59,
      "lon": -89.83,
      "status": "documentato",
      "kind": "lungadistanza",
      "dy": 24
    },
    {
      "id": "son",
      "label": "Sonsonate e Izalco",
      "lat": 13.72,
      "lon": -89.72,
      "status": "documentato",
      "kind": "lungadistanza",
      "dy": 24
    },
    {
      "id": "gua",
      "label": "Guatemala e reti centroamericane",
      "lat": 14.5,
      "lon": -90.5,
      "status": "documentato",
      "kind": "lungadistanza",
      "dy": 24
    }
  ],
  "flows": [
    {
      "source": "vol",
      "target": "ctr",
      "status": "documentato",
      "label": "strade di montagna",
      "food": "caffè, ortaggi, acqua e lavoro rurale"
    },
    {
      "source": "ilo",
      "target": "ctr",
      "status": "documentato",
      "label": "strade vallive",
      "food": "pesce, mais, frutta e materiali"
    },
    {
      "source": "lib",
      "target": "ctr",
      "status": "documentato",
      "label": "ferrovia e strada al Pacifico",
      "food": "pesce, sale e merci portuali"
    },
    {
      "source": "aca",
      "target": "ctr",
      "status": "documentato",
      "label": "ferrovia occidentale",
      "food": "caffè, importazioni e combustibili"
    },
    {
      "source": "son",
      "target": "ctr",
      "status": "documentato",
      "label": "ferrovie e strade",
      "food": "caffè, zucchero, cereali e lavoro indigeno"
    },
    {
      "source": "gua",
      "target": "ctr",
      "status": "documentato",
      "label": "rete centroamericana",
      "food": "merci, capitali, migranti e informazioni"
    }
  ]
}
