{
  "places": [
    {
      "id": "ctr",
      "label": "Bengaluru",
      "lat": 12.9716,
      "lon": 77.5946,
      "status": "documentato",
      "kind": "centro",
      "dy": -22
    },
    {
      "id": "kol",
      "label": "Kolar e Karnataka orientale",
      "lat": 13.13,
      "lon": 78.13,
      "status": "documentato",
      "kind": "regionale",
      "dy": 24
    },
    {
      "id": "mys",
      "label": "Mysuru e Mandya",
      "lat": 12.3,
      "lon": 76.65,
      "status": "documentato",
      "kind": "lungadistanza",
      "dy": 24
    },
    {
      "id": "tum",
      "label": "Tumakuru",
      "lat": 13.34,
      "lon": 77.1,
      "status": "documentato",
      "kind": "regionale",
      "dy": 24
    },
    {
      "id": "che",
      "label": "Chennai e costa orientale",
      "lat": 13.08,
      "lon": 80.27,
      "status": "documentato",
      "kind": "lungadistanza",
      "dy": 24
    },
    {
      "id": "air",
      "label": "Aeroporto Kempegowda",
      "lat": 13.1986,
      "lon": 77.7066,
      "status": "documentato",
      "kind": "regionale",
      "dy": 24
    },
    {
      "id": "glo",
      "label": "Rotte globali",
      "lat": 10.0,
      "lon": 82.0,
      "status": "documentato",
      "kind": "lungadistanza",
      "dy": 24
    }
  ],
  "flows": [
    {
      "source": "kol",
      "target": "ctr",
      "status": "documentato",
      "label": "strade e mercati",
      "food": "ortaggi, latte, lavoratori e acqua virtuale"
    },
    {
      "source": "mys",
      "target": "ctr",
      "status": "documentato",
      "label": "ferrovia e autostrada",
      "food": "riso, zucchero, frutta e pendolari"
    },
    {
      "source": "tum",
      "target": "ctr",
      "status": "documentato",
      "label": "strade industriali",
      "food": "cereali, manufatti, latte e lavoratori"
    },
    {
      "source": "che",
      "target": "ctr",
      "status": "documentato",
      "label": "ferrovia, strada e porto",
      "food": "pesce, container, hardware e alimenti"
    },
    {
      "source": "air",
      "target": "ctr",
      "status": "documentato",
      "label": "cargo aereo",
      "food": "tecnologia, alimenti ad alto valore e passeggeri"
    },
    {
      "source": "glo",
      "target": "ctr",
      "status": "documentato",
      "label": "voli e reti digitali",
      "food": "capitale, conoscenze, ingredienti e servizi"
    }
  ]
}
